[{"name":"Anchorage","state":"AK","latitude":61.21996991,"longitude":-149.9002149,"population2010":243853,"show":"x","position":"right-up"},
{"name":"Fairbanks","state":"AK","latitude":64.83698427,"longitude":-147.7106586,"population2010":56993,"show":"x","position":"right-up"},
{"name":"Juneau","state":"AK","latitude":58.31412661,"longitude":-134.419997,"population2010":21633,"show":"x","position":"right-up"},
{"name":"Palmer","state":"AK","latitude":61.59971417,"longitude":-149.1126919,"population2010":13111,"show":"","position":""},
{"name":"Kodiak","state":"AK","latitude":57.78999839,"longitude":-152.4069869,"population2010":9461,"show":"x","position":"right-up"},
{"name":"Ketchikan","state":"AK","latitude":55.3562193,"longitude":-131.6639895,"population2010":9070,"show":"","position":""},
{"name":"Sitka","state":"AK","latitude":57.06039769,"longitude":-135.3275494,"population2010":7289,"show":"","position":""},
{"name":"Kenai","state":"AK","latitude":60.55435162,"longitude":-151.2580131,"population2010":5551,"show":"","position":""},
{"name":"Bethel","state":"AK","latitude":60.79330345,"longitude":-161.7557961,"population2010":4653,"show":"","position":""},
{"name":"Homer","state":"AK","latitude":59.64293439,"longitude":-151.5482797,"population2010":3483,"show":"","position":""},
{"name":"Nome","state":"AK","latitude":64.50610008,"longitude":-165.4063744,"population2010":2557,"show":"","position":""},
{"name":"Kotzebue","state":"AK","latitude":66.89869305,"longitude":-162.5965975,"population2010":2553,"show":"","position":""},
{"name":"Valdez","state":"AK","latitude":61.13599571,"longitude":-146.348287,"population2010":2530,"show":"","position":""},
{"name":"Barrow","state":"AK","latitude":71.29056968,"longitude":-156.78858,"population2010":2488,"show":"","position":""},
{"name":"Wrangell","state":"AK","latitude":56.47126752,"longitude":-132.3715949,"population2010":1247,"show":"","position":""},
{"name":"Kotlit","state":"AK","latitude":63.03458783,"longitude":-163.5532833,"population2010":1002,"show":"","position":""},
{"name":"Cordova","state":"AK","latitude":60.5427761,"longitude":-145.7574962,"population2010":988,"show":"","position":""},
{"name":"Skagway","state":"AK","latitude":59.45832033,"longitude":-135.3138959,"population2010":955,"show":"","position":""},
{"name":"Dillingham","state":"AK","latitude":59.05656031,"longitude":-158.4803121,"population2010":932,"show":"","position":""},
{"name":"Fort Yukon","state":"AK","latitude":66.56468243,"longitude":-145.2737789,"population2010":833,"show":"","position":""},
{"name":"Selawik","state":"AK","latitude":66.60387901,"longitude":-160.0093911,"population2010":832,"show":"","position":""},
{"name":"Unalakleet","state":"AK","latitude":63.87342552,"longitude":-160.7880516,"population2010":741,"show":"","position":""},
{"name":"Sand Point","state":"AK","latitude":55.33970868,"longitude":-160.4971908,"population2010":667,"show":"","position":""},
{"name":"Hoonah","state":"AK","latitude":58.11540489,"longitude":-135.438617,"population2010":361,"show":"","position":""},
{"name":"Tununak","state":"AK","latitude":60.58548667,"longitude":-165.2557892,"population2010":352,"show":"","position":""},
{"name":"Unalaska","state":"AK","latitude":53.868584,"longitude":-166.5316028,"population2010":306,"show":"","position":""},
{"name":"King Salmon","state":"AK","latitude":58.68870323,"longitude":-156.6613784,"population2010":292,"show":"","position":""},
{"name":"Shishmaref","state":"AK","latitude":66.25697512,"longitude":-166.0718893,"population2010":254,"show":"","position":""},
{"name":"Koyuk","state":"AK","latitude":64.94026874,"longitude":-161.1574717,"population2010":254,"show":"","position":""},
{"name":"Quinhagak","state":"AK","latitude":59.74923281,"longitude":-161.9157864,"population2010":250,"show":"","position":""},
{"name":"Togiak","state":"AK","latitude":59.07036101,"longitude":-160.3783234,"population2010":236,"show":"","position":""},
{"name":"Wainwright","state":"AK","latitude":70.63688865,"longitude":-160.0383041,"population2010":174,"show":"","position":""},
{"name":"Hooper Bay","state":"AK","latitude":61.53108787,"longitude":-166.0965648,"population2010":167,"show":"","position":""},
{"name":"McGrath","state":"AK","latitude":62.9568148,"longitude":-155.5957845,"population2010":138,"show":"","position":""},
{"name":"Chignik","state":"AK","latitude":56.295671,"longitude":-158.4022282,"population2010":118,"show":"","position":""},
{"name":"Yakutat","state":"AK","latitude":59.54730715,"longitude":-139.7272183,"population2010":109,"show":"","position":""},
{"name":"Eagle","state":"AK","latitude":64.78799501,"longitude":-141.1999966,"population2010":104,"show":"","position":""},
{"name":"Kaktovik","state":"AK","latitude":70.08785552,"longitude":-143.6029132,"population2010":101,"show":"","position":""},
{"name":"Emmonak","state":"AK","latitude":62.77698081,"longitude":-164.5229916,"population2010":100,"show":"","position":""},
{"name":"Mekoryuk","state":"AK","latitude":60.38864671,"longitude":-166.1899372,"population2010":99,"show":"","position":""},
{"name":"Wales","state":"AK","latitude":65.60959861,"longitude":-168.0875027,"population2010":99,"show":"","position":""},
{"name":"Karluk","state":"AK","latitude":57.57228558,"longitude":-154.4550273,"population2010":96,"show":"","position":""},
{"name":"Teller","state":"AK","latitude":65.26359906,"longitude":-166.3607864,"population2010":83,"show":"","position":""},
{"name":"Nenana","state":"AK","latitude":64.56379681,"longitude":-149.0930032,"population2010":75,"show":"","position":""},
{"name":"Hydaburg","state":"AK","latitude":55.21397992,"longitude":-132.8006385,"population2010":0,"show":"","position":""},
{"name":"Atqasuk","state":"AK","latitude":70.4693795,"longitude":-157.395778,"population2010":0,"show":"","position":""},
{"name":"Port Heiden","state":"AK","latitude":56.94909365,"longitude":-158.6268915,"population2010":0,"show":"","position":""},
{"name":"Perryville","state":"AK","latitude":55.91861391,"longitude":-159.1511489,"population2010":0,"show":"","position":""},
{"name":"Goodnews Bay","state":"AK","latitude":59.12099265,"longitude":-161.5871302,"population2010":0,"show":"","position":""},
{"name":"Nyac","state":"AK","latitude":61.00414329,"longitude":-159.9404806,"population2010":0,"show":"","position":""},
{"name":"Mountain Village","state":"AK","latitude":62.08552431,"longitude":-163.729009,"population2010":0,"show":"","position":""},
{"name":"Kaltag","state":"AK","latitude":64.32719627,"longitude":-158.7218986,"population2010":0,"show":"","position":""},
{"name":"Koyukuk","state":"AK","latitude":64.88028912,"longitude":-157.7008499,"population2010":0,"show":"","position":""},
{"name":"Kobuk","state":"AK","latitude":66.9072455,"longitude":-156.8809774,"population2010":0,"show":"","position":""},
{"name":"Talkeetna","state":"AK","latitude":62.3237785,"longitude":-150.1094269,"population2010":0,"show":"","position":""},
{"name":"Whittier","state":"AK","latitude":60.78415672,"longitude":-148.6776797,"population2010":0,"show":"","position":""},
{"name":"Montana","state":"AK","latitude":62.07968487,"longitude":-150.0727625,"population2010":0,"show":"","position":""},
{"name":"Lake Minchumina","state":"AK","latitude":63.88283063,"longitude":-152.3121865,"population2010":0,"show":"","position":""},
{"name":"Cantwell","state":"AK","latitude":63.39159446,"longitude":-148.9507896,"population2010":0,"show":"","position":""},
{"name":"Gulkana","state":"AK","latitude":62.27135276,"longitude":-145.3821961,"population2010":0,"show":"","position":""},
{"name":"Big Delta","state":"AK","latitude":64.15252993,"longitude":-145.8421939,"population2010":0,"show":"","position":""},
{"name":"Allakaket","state":"AK","latitude":66.56548342,"longitude":-152.6454995,"population2010":0,"show":"","position":""},
{"name":"Tanana","state":"AK","latitude":65.17187339,"longitude":-152.0787899,"population2010":0,"show":"","position":""},
{"name":"Atka","state":"AK","latitude":52.19648968,"longitude":-174.2004887,"population2010":0,"show":"","position":""},
{"name":"Nikolski","state":"AK","latitude":52.93843406,"longitude":-168.8676876,"population2010":0,"show":"","position":""},
{"name":"False Pass","state":"AK","latitude":54.85121136,"longitude":-163.415023,"population2010":0,"show":"","position":""},
{"name":"Kivalina","state":"AK","latitude":67.73149224,"longitude":-164.4859034,"population2010":0,"show":"","position":""},
{"name":"Newhalen","state":"AK","latitude":59.72034568,"longitude":-154.8971967,"population2010":0,"show":"","position":""},
{"name":"Pilot Point","state":"AK","latitude":57.56455996,"longitude":-157.5691266,"population2010":0,"show":"","position":""},
{"name":"Aniak","state":"AK","latitude":61.5787077,"longitude":-159.5221857,"population2010":0,"show":"","position":""},
{"name":"Hughes","state":"AK","latitude":66.04918418,"longitude":-154.2549878,"population2010":0,"show":"","position":""},
{"name":"Ambler","state":"AK","latitude":67.08648521,"longitude":-157.8514091,"population2010":0,"show":"","position":""},
{"name":"Wasilla","state":"AK","latitude":61.58173077,"longitude":-149.439442,"population2010":0,"show":"","position":""},
{"name":"Circle","state":"AK","latitude":65.82589032,"longitude":-144.0605197,"population2010":0,"show":"","position":""},
{"name":"Denali Park","state":"AK","latitude":63.73309816,"longitude":-148.9140994,"population2010":0,"show":"","position":""},
{"name":"Tanacross","state":"AK","latitude":63.38570335,"longitude":-143.346403,"population2010":0,"show":"","position":""},
{"name":"Wiseman","state":"AK","latitude":67.4104706,"longitude":-150.1074891,"population2010":0,"show":"","position":""},
{"name":"Gambell","state":"AK","latitude":63.77971031,"longitude":-171.7310787,"population2010":0,"show":"","position":""},
{"name":"Seward","state":"AK","latitude":60.1261607,"longitude":-149.4699827,"population2010":0,"show":"","position":""},
{"name":"Red Devil","state":"AK","latitude":61.76099632,"longitude":-157.3125273,"population2010":0,"show":"","position":""},
{"name":"Galena","state":"AK","latitude":64.73329551,"longitude":-156.9269953,"population2010":0,"show":"","position":""},
{"name":"Cold Bay","state":"AK","latitude":55.20000144,"longitude":-162.7150916,"population2010":0,"show":"","position":""},
{"name":"Point Hope","state":"AK","latitude":68.34772605,"longitude":-166.8080201,"population2010":0,"show":"","position":""},
{"name":"Prudhoe Bay","state":"AK","latitude":70.29218101,"longitude":-148.6693598,"population2010":0,"show":"","position":""},
{"name":"Birmingham","state":"AL","latitude":33.53000633,"longitude":-86.82499516,"population2010":639704,"show":"x","position":"right-up"},
{"name":"Mobile","state":"AL","latitude":30.68002525,"longitude":-88.04998499,"population2010":253466,"show":"x","position":"right-up"},
{"name":"Huntsville","state":"AL","latitude":34.71995953,"longitude":-86.60999536,"population2010":212733,"show":"x","position":"right-up"},
{"name":"Montgomery","state":"AL","latitude":32.36160219,"longitude":-86.27918868,"population2010":190658,"show":"x","position":"right-up"},
{"name":"Tuscaloosa","state":"AL","latitude":33.22511538,"longitude":-87.54417607,"population2010":121373,"show":"x","position":"right-up"},
{"name":"Auburn","state":"AL","latitude":32.60970074,"longitude":-85.48083948,"population2010":73929,"show":"","position":""},
{"name":"Dothan","state":"AL","latitude":31.22345461,"longitude":-85.39058659,"population2010":61689,"show":"","position":""},
{"name":"Florence","state":"AL","latitude":34.79969627,"longitude":-87.67724288,"population2010":45349,"show":"","position":""},
{"name":"Gadsden","state":"AL","latitude":34.01455039,"longitude":-86.00664718,"population2010":41709,"show":"","position":""},
{"name":"Enterprise","state":"AL","latitude":31.32781516,"longitude":-85.84399561,"population2010":24205,"show":"","position":""},
{"name":"Selma","state":"AL","latitude":32.40756838,"longitude":-87.0211589,"population2010":20126,"show":"","position":""},
{"name":"Little Rock","state":"AR","latitude":34.73608258,"longitude":-92.33109318,"population2010":270893,"show":"x","position":"right-up"},
{"name":"Fayetteville","state":"AR","latitude":36.06297833,"longitude":-94.15720911,"population2010":151671,"show":"x","position":"right-up"},
{"name":"Fort Smith","state":"AR","latitude":35.38622377,"longitude":-94.39835718,"population2010":93988,"show":"x","position":"right-up"},
{"name":"Texarkana","state":"AR","latitude":33.44210472,"longitude":-94.03747481,"population2010":74414,"show":"x","position":"right-up"},
{"name":"Conway","state":"AR","latitude":35.09128054,"longitude":-92.4513184,"population2010":61995,"show":"x","position":"right-up"},
{"name":"Jonesboro","state":"AR","latitude":35.84257835,"longitude":-90.70416406,"population2010":58025,"show":"","position":""},
{"name":"Pine Bluff","state":"AR","latitude":34.22869753,"longitude":-92.00305119,"population2010":49727,"show":"","position":""},
{"name":"Hot Springs","state":"AR","latitude":34.50395205,"longitude":-93.05500248,"population2010":44182,"show":"","position":""},
{"name":"El Dorado","state":"AR","latitude":33.21392743,"longitude":-92.66251998,"population2010":22416,"show":"","position":""},
{"name":"Paragould","state":"AR","latitude":36.05708722,"longitude":-90.50288436,"population2010":22322,"show":"","position":""},
{"name":"Denver","state":"CO","latitude":39.73918805,"longitude":-104.984016,"population2010":1548599,"show":"x","position":"right-up"},
{"name":"Aurora","state":"CO","latitude":39.69585736,"longitude":-104.808497,"population2010":587540,"show":"","position":""},
{"name":"Colorado Springs","state":"CO","latitude":38.86296246,"longitude":-104.7919863,"population2010":493654,"show":"x","position":"right-up"},
{"name":"Fort Collins","state":"CO","latitude":40.56068829,"longitude":-105.0588693,"population2010":228385,"show":"x","position":"left-up"},
{"name":"Greeley","state":"CO","latitude":40.41919822,"longitude":-104.739974,"population2010":125410,"show":"","position":""},
{"name":"Boulder","state":"CO","latitude":40.03844627,"longitude":-105.246093,"population2010":122274,"show":"x","position":"right-up"},
{"name":"Pueblo","state":"CO","latitude":38.2803882,"longitude":-104.6300066,"population2010":112195,"show":"x","position":"right-up"},
{"name":"Grand Junction","state":"CO","latitude":39.09385276,"longitude":-108.5499998,"population2010":104214,"show":"x","position":"right-up"},
{"name":"Durango","state":"CO","latitude":37.27564333,"longitude":-107.8799891,"population2010":23233,"show":"","position":""},
{"name":"Montrose","state":"CO","latitude":38.47727541,"longitude":-107.8655197,"population2010":21789,"show":"","position":""},
{"name":"Glenwood Springs","state":"CO","latitude":39.54658999,"longitude":-107.3247,"population2010":14004,"show":"","position":""},
{"name":"Craig","state":"CO","latitude":40.51728009,"longitude":-107.5503968,"population2010":9240,"show":"","position":""},
{"name":"Lamar","state":"CO","latitude":38.08649823,"longitude":-102.6194058,"population2010":8620,"show":"","position":""},
{"name":"Trinidad","state":"CO","latitude":37.17133445,"longitude":-104.5063965,"population2010":8247,"show":"","position":""},
{"name":"Gunnison","state":"CO","latitude":38.54476483,"longitude":-106.92829,"population2010":7324,"show":"","position":""},
{"name":"Atlanta","state":"GA","latitude":33.83001385,"longitude":-84.39994938,"population2010":2928128,"show":"x","position":"left-down"},
{"name":"Marietta","state":"GA","latitude":33.95561342,"longitude":-84.54324813,"population2010":1008332,"show":"","position":""},
{"name":"Augusta","state":"GA","latitude":33.46081158,"longitude":-81.98498051,"population2010":262332,"show":"x","position":"left-up"},
{"name":"Columbus","state":"GA","latitude":32.47043276,"longitude":-84.98001734,"population2010":217980,"show":"x","position":"right-up"},
{"name":"Savannah","state":"GA","latitude":32.02110618,"longitude":-81.10999516,"population2010":180187,"show":"x","position":"left-up"},
{"name":"Macon","state":"GA","latitude":32.85038373,"longitude":-83.63004806,"population2010":115592,"show":"","position":""},
{"name":"Athens","state":"GA","latitude":33.96129783,"longitude":-83.3780221,"population2010":110301,"show":"x","position":"right-up"},
{"name":"Albany","state":"GA","latitude":31.57873008,"longitude":-84.15582992,"population2010":88766,"show":"","position":""},
{"name":"Valdosta","state":"GA","latitude":30.8328583,"longitude":-83.27859664,"population2010":61179,"show":"","position":""},
{"name":"Dalton","state":"GA","latitude":34.76972394,"longitude":-84.97030217,"population2010":58557,"show":"","position":""},
{"name":"Brunswick","state":"GA","latitude":31.1496865,"longitude":-81.49165145,"population2010":47085,"show":"","position":""},
{"name":"La Grange","state":"GA","latitude":33.03647056,"longitude":-85.03187464,"population2010":31776,"show":"","position":""},
{"name":"Dublin","state":"GA","latitude":32.53745709,"longitude":-82.91828272,"population2010":22623,"show":"","position":""},
{"name":"Waycross","state":"GA","latitude":31.21381695,"longitude":-82.35490625,"population2010":19824,"show":"","position":""},
{"name":"Douglas","state":"GA","latitude":31.50777834,"longitude":-82.85068994,"population2010":13441,"show":"","position":""},
{"name":"Des Moines","state":"IA","latitude":41.57998008,"longitude":-93.61998092,"population2010":380655,"show":"x","position":"right-up"},
{"name":"Cedar Rapids","state":"IA","latitude":41.96998212,"longitude":-91.66002303,"population2010":170621,"show":"x","position":"right-up"},
{"name":"Davenport","state":"IA","latitude":41.55398684,"longitude":-90.58753036,"population2010":109185,"show":"x","position":"right-up"},
{"name":"Council Bluffs","state":"IA","latitude":41.26227338,"longitude":-95.86080021,"population2010":101805,"show":"x","position":"right-up"},
{"name":"Iowa City","state":"IA","latitude":41.66108624,"longitude":-91.52997929,"population2010":98516,"show":"x","position":"right-up"},
{"name":"Waterloo","state":"IA","latitude":42.49315432,"longitude":-92.34279789,"population2010":98347,"show":"","position":""},
{"name":"Sioux City","state":"IA","latitude":42.50038902,"longitude":-96.39999211,"population2010":90932,"show":"","position":""},
{"name":"Dubuque","state":"IA","latitude":42.50093162,"longitude":-90.66445073,"population2010":62483,"show":"","position":""},
{"name":"Ames","state":"IA","latitude":42.05385297,"longitude":-93.61972254,"population2010":57104,"show":"","position":""},
{"name":"Burlington","state":"IA","latitude":40.80793418,"longitude":-91.11276961,"population2010":29773,"show":"","position":""},
{"name":"Mason City","state":"IA","latitude":43.15401837,"longitude":-93.20083338,"population2010":26852,"show":"","position":""},
{"name":"Ottumwa","state":"IA","latitude":41.01288291,"longitude":-92.414809,"population2010":25982,"show":"","position":""},
{"name":"Ft. Dodge","state":"IA","latitude":42.50682273,"longitude":-94.1802568,"population2010":25689,"show":"","position":""},
{"name":"Spencer","state":"IA","latitude":43.14528505,"longitude":-95.14717452,"population2010":10674,"show":"","position":""},
{"name":"Boston","state":"MA","latitude":42.32996014,"longitude":-71.07001367,"population2010":2338688,"show":"x","position":"left-up"},
{"name":"Lowell","state":"MA","latitude":42.63368837,"longitude":-71.31669112,"population2010":716163,"show":"x","position":"left-up"},
{"name":"Springfield","state":"MA","latitude":42.12002464,"longitude":-72.57999903,"population2010":421780,"show":"x","position":"left-up"},
{"name":"Salem","state":"MA","latitude":42.5224989,"longitude":-70.88309175,"population2010":335509,"show":"x","position":"left-up"},
{"name":"Worcester","state":"MA","latitude":42.27042889,"longitude":-71.80002079,"population2010":287365,"show":"","position":""},
{"name":"New Bedford","state":"MA","latitude":41.6561253,"longitude":-70.94469833,"population2010":136082,"show":"","position":""},
{"name":"Pittsfield","state":"MA","latitude":42.44819582,"longitude":-73.25982833,"population2010":46230,"show":"","position":""},
{"name":"Minneapolis","state":"MN","latitude":44.97997927,"longitude":-93.25178634,"population2010":1523198,"show":"x","position":"left-up"},
{"name":"St. Paul","state":"MN","latitude":44.94398663,"longitude":-93.08497481,"population2010":659651,"show":"x","position":"right-up"},
{"name":"Lakeville","state":"MN","latitude":44.65010276,"longitude":-93.24251042,"population2010":261308,"show":"x","position":"right-up"},
{"name":"St. Cloud","state":"MN","latitude":45.56120994,"longitude":-94.16222172,"population2010":112794,"show":"x","position":"right-up"},
{"name":"Rochester","state":"MN","latitude":44.02205324,"longitude":-92.46968937,"population2010":108511,"show":"x","position":"right-up"},
{"name":"Duluth","state":"MN","latitude":46.78333173,"longitude":-92.10637822,"population2010":79253,"show":"","position":""},
{"name":"Mankato","state":"MN","latitude":44.16362083,"longitude":-93.99915674,"population2010":56325,"show":"","position":""},
{"name":"Moorhead","state":"MN","latitude":46.87430808,"longitude":-96.74219344,"population2010":35528,"show":"","position":""},
{"name":"Winona","state":"MN","latitude":44.0504236,"longitude":-91.63919743,"population2010":32897,"show":"","position":""},
{"name":"Brainerd","state":"MN","latitude":46.35800885,"longitude":-94.20084986,"population2010":28187,"show":"","position":""},
{"name":"Faribault","state":"MN","latitude":44.29048647,"longitude":-93.26801274,"population2010":25376,"show":"","position":""},
{"name":"Albert Lea","state":"MN","latitude":43.64778668,"longitude":-93.36870427,"population2010":20522,"show":"","position":""},
{"name":"Willmar","state":"MN","latitude":45.12188275,"longitude":-95.04330489,"population2010":18391,"show":"","position":""},
{"name":"International Falls","state":"MN","latitude":48.60112775,"longitude":-93.4108464,"population2010":15240,"show":"","position":""},
{"name":"Bemidji","state":"MN","latitude":47.47357383,"longitude":-94.88018823,"population2010":14796,"show":"","position":""},
{"name":"Crookston","state":"MN","latitude":47.77376223,"longitude":-96.60773137,"population2010":8653,"show":"","position":""},
{"name":"Ely","state":"MN","latitude":47.90042116,"longitude":-91.82569767,"population2010":3731,"show":"","position":""},
{"name":"Virginia","state":"MN","latitude":47.52367413,"longitude":-92.53640365,"population2010":0,"show":"","position":""},
{"name":"Manchester","state":"NH","latitude":42.99599184,"longitude":-71.45528731,"population2010":196566,"show":"","position":""},
{"name":"Concord","state":"NH","latitude":43.20807192,"longitude":-71.53804712,"population2010":44606,"show":"","position":""},
{"name":"Las Vegas","state":"NV","latitude":36.20999778,"longitude":-115.2200061,"population2010":1628952,"show":"x","position":"right-up"},
{"name":"Reno","state":"NV","latitude":39.52997601,"longitude":-119.8200096,"population2010":328585,"show":"x","position":"right-up"},
{"name":"Carson City","state":"NV","latitude":39.16384849,"longitude":-119.7663953,"population2010":50193,"show":"x","position":"right-up"},
{"name":"Elko","state":"NV","latitude":40.83250633,"longitude":-115.7619886,"population2010":19252,"show":"x","position":"right-up"},
{"name":"Boulder City","state":"NV","latitude":35.97895245,"longitude":-114.8315802,"population2010":14666,"show":"","position":""},
{"name":"Winnemucca","state":"NV","latitude":40.97337628,"longitude":-117.7346847,"population2010":9666,"show":"","position":""},
{"name":"Ely","state":"NV","latitude":39.24702171,"longitude":-114.887675,"population2010":4216,"show":"","position":""},
{"name":"Tonopah","state":"NV","latitude":38.06699038,"longitude":-117.2289791,"population2010":725,"show":"","position":""},
{"name":"Oklahoma City","state":"OK","latitude":35.47004295,"longitude":-97.51868351,"population2010":714957,"show":"x","position":"right-up"},
{"name":"Tulsa","state":"OK","latitude":36.12000327,"longitude":-95.93002079,"population2010":517036,"show":"x","position":"right-up"},
{"name":"Lawton","state":"OK","latitude":34.59903668,"longitude":-98.40997278,"population2010":79839,"show":"x","position":"right-up"},
{"name":"Stillwater","state":"OK","latitude":36.13535118,"longitude":-97.06829757,"population2010":47667,"show":"x","position":"left-up"},
{"name":"Enid","state":"OK","latitude":36.39554201,"longitude":-97.8780931,"population2010":45789,"show":"","position":""},
{"name":"Muskogee","state":"OK","latitude":35.74821718,"longitude":-95.36943486,"population2010":39295,"show":"","position":""},
{"name":"Shawnee","state":"OK","latitude":35.34278973,"longitude":-96.93378382,"population2010":29628,"show":"","position":""},
{"name":"Ardmore","state":"OK","latitude":34.1810777,"longitude":-97.12940495,"population2010":24960,"show":"","position":""},
{"name":"Ponca City","state":"OK","latitude":36.7073576,"longitude":-97.08527328,"population2010":24413,"show":"","position":""},
{"name":"McAlester","state":"OK","latitude":34.93299562,"longitude":-95.76597396,"population2010":21668,"show":"","position":""},
{"name":"Bartlesville","state":"OK","latitude":36.74720013,"longitude":-95.98058618,"population2010":15260,"show":"","position":""},
{"name":"Woodward","state":"OK","latitude":36.43342084,"longitude":-99.39769027,"population2010":12931,"show":"","position":""},
{"name":"Guymon","state":"OK","latitude":36.68580853,"longitude":-101.4795012,"population2010":11178,"show":"","position":""},
{"name":"Norman","state":"OK","latitude":35.22791302,"longitude":-97.34414636,"population2010":0,"show":"","position":""},
{"name":"Charleston","state":"SC","latitude":32.79237693,"longitude":-79.99210474,"population2010":411940,"show":"x","position":"right-up"},
{"name":"Columbia","state":"SC","latitude":34.0399752,"longitude":-80.89998214,"population2010":398093,"show":"x","position":"right-up"},
{"name":"Greenville","state":"SC","latitude":34.85292299,"longitude":-82.3941545,"population2010":350954,"show":"x","position":"right-up"},
{"name":"Spartanburg","state":"SC","latitude":34.94942873,"longitude":-81.93227055,"population2010":124126,"show":"x","position":"right-up"},
{"name":"Rock Hill","state":"SC","latitude":34.94038535,"longitude":-81.03000004,"population2010":94564,"show":"x","position":"right-up"},
{"name":"Anderson","state":"SC","latitude":34.50374534,"longitude":-82.6502629,"population2010":61558,"show":"","position":""},
{"name":"Florence","state":"SC","latitude":34.19567629,"longitude":-79.76279057,"population2010":57438,"show":"","position":""},
{"name":"Sumter","state":"SC","latitude":33.92065432,"longitude":-80.34172164,"population2010":50868,"show":"","position":""},
{"name":"Myrtle Beach","state":"SC","latitude":33.68891136,"longitude":-78.8869784,"population2010":49357,"show":"","position":""},
{"name":"Aiken","state":"SC","latitude":33.5494625,"longitude":-81.72060388,"population2010":46196,"show":"","position":""},
{"name":"Orangeburg","state":"SC","latitude":33.49680422,"longitude":-80.86223251,"population2010":35472,"show":"","position":""},
{"name":"Beaufort","state":"SC","latitude":32.43216636,"longitude":-80.68950403,"population2010":31626,"show":"","position":""},
{"name":"Nashville","state":"TN","latitude":36.16997438,"longitude":-86.77998499,"population2010":687254,"show":"x","position":"right-up"},
{"name":"Memphis","state":"TN","latitude":35.1199868,"longitude":-89.99999516,"population2010":426687,"show":"x","position":"right-up"},
{"name":"Knoxville","state":"TN","latitude":35.97001243,"longitude":-83.92003036,"population2010":298664,"show":"x","position":"right-up"},
{"name":"Barlett","state":"TN","latitude":35.22290041,"longitude":-89.84109013,"population2010":286423,"show":"","position":""},
{"name":"Chattanooga","state":"TN","latitude":35.06998985,"longitude":-85.25000086,"population2010":257589,"show":"x","position":"right-up"},
{"name":"Clarksville","state":"TN","latitude":36.5300816,"longitude":-87.35943282,"population2010":131453,"show":"","position":""},
{"name":"Murfreesboro","state":"TN","latitude":35.84596315,"longitude":-86.39026717,"population2010":115774,"show":"","position":""},
{"name":"Johnson City","state":"TN","latitude":36.31332481,"longitude":-82.35361434,"population2010":77538,"show":"","position":""},
{"name":"Jackson","state":"TN","latitude":35.61486615,"longitude":-88.81389185,"population2010":63196,"show":"","position":""},
{"name":"Kingsport","state":"TN","latitude":36.54832338,"longitude":-82.56194788,"population2010":57467,"show":"","position":""},
{"name":"Columbia","state":"TN","latitude":35.61499534,"longitude":-87.03526656,"population2010":36987,"show":"","position":""},
{"name":"Oak Ridge","state":"TN","latitude":36.01065594,"longitude":-84.26972477,"population2010":33556,"show":"","position":""},
{"name":"Houston","state":"TX","latitude":29.81997438,"longitude":-95.33997929,"population2010":3647574,"show":"x","position":"right-up"},
{"name":"Dallas","state":"TX","latitude":32.82002382,"longitude":-96.84001693,"population2010":2763000,"show":"x","position":"right-up"},
{"name":"San Antonio","state":"TX","latitude":29.48733319,"longitude":-98.50730534,"population2010":1476417,"show":"x","position":"left-down"},
{"name":"Austin","state":"TX","latitude":30.26694969,"longitude":-97.74277836,"population2010":1098582,"show":"x","position":"right-up"},
{"name":"Ft. Worth","state":"TX","latitude":32.73997703,"longitude":-97.34003809,"population2010":1013544,"show":"","position":""},
{"name":"El Paso","state":"TX","latitude":31.77998395,"longitude":-106.5099952,"population2010":749572,"show":"x","position":"right-up"},
{"name":"Arlington","state":"TX","latitude":32.68476076,"longitude":-97.02023849,"population2010":724777,"show":"","position":""},
{"name":"Pasadena","state":"TX","latitude":29.66086265,"longitude":-95.14774296,"population2010":628492,"show":"","position":""},
{"name":"Laredo","state":"TX","latitude":27.50613629,"longitude":-99.50721847,"population2010":434768,"show":"","position":""},
{"name":"McAllen","state":"TX","latitude":26.20303754,"longitude":-98.22972538,"population2010":364004,"show":"","position":""},
{"name":"Corpus Christi","state":"TX","latitude":27.74281435,"longitude":-97.40189478,"population2010":222501,"show":"","position":""},
{"name":"Lubbock","state":"TX","latitude":33.58000327,"longitude":-101.8799677,"population2010":213300,"show":"","position":""},
{"name":"Edinburg","state":"TX","latitude":26.30318646,"longitude":-98.1599622,"population2010":190244,"show":"","position":""},
{"name":"Brownsville","state":"TX","latitude":25.91997988,"longitude":-97.50000248,"population2010":181399,"show":"","position":""},
{"name":"Denton","state":"TX","latitude":33.21576194,"longitude":-97.12883651,"population2010":176930,"show":"","position":""},
{"name":"Amarillo","state":"TX","latitude":35.22998008,"longitude":-101.8299966,"population2010":175286,"show":"","position":""},
{"name":"Waco","state":"TX","latitude":31.54917116,"longitude":-97.14638066,"population2010":167347,"show":"","position":""},
{"name":"Bryan","state":"TX","latitude":30.67418581,"longitude":-96.36968388,"population2010":146692,"show":"","position":""},
{"name":"Killeen","state":"TX","latitude":31.11728538,"longitude":-97.72748214,"population2010":137919,"show":"","position":""},
{"name":"Tyler","state":"TX","latitude":32.35108604,"longitude":-95.30078272,"population2010":112245,"show":"","position":""},
{"name":"Harlingen","state":"TX","latitude":26.19755983,"longitude":-97.69019759,"population2010":110339,"show":"","position":""},
{"name":"Odessa","state":"TX","latitude":31.84556134,"longitude":-102.3672248,"population2010":106054,"show":"","position":""},
{"name":"Beaumont","state":"TX","latitude":30.08626304,"longitude":-94.10168278,"population2010":103426,"show":"","position":""},
{"name":"Abilene","state":"TX","latitude":32.4486253,"longitude":-99.73278609,"population2010":101769,"show":"","position":""},
{"name":"Midland","state":"TX","latitude":32.030718,"longitude":-102.0974996,"population2010":98501,"show":"","position":""},
{"name":"Wichita Falls","state":"TX","latitude":33.91362632,"longitude":-98.49306848,"population2010":93646,"show":"","position":""},
{"name":"San Angelo","state":"TX","latitude":31.4640084,"longitude":-100.4366966,"population2010":86339,"show":"","position":""},
{"name":"Baytown","state":"TX","latitude":29.75584393,"longitude":-94.96772811,"population2010":86034,"show":"","position":""},
{"name":"Longview","state":"TX","latitude":32.50053428,"longitude":-94.74027429,"population2010":75396,"show":"","position":""},
{"name":"Freeport","state":"TX","latitude":28.95948427,"longitude":-95.35687748,"population2010":74892,"show":"","position":""},
{"name":"San Marcos","state":"TX","latitude":29.88307131,"longitude":-97.94111251,"population2010":70371,"show":"","position":""},
{"name":"Texas City","state":"TX","latitude":29.41087791,"longitude":-94.96276717,"population2010":69914,"show":"","position":""},
{"name":"Galveston","state":"TX","latitude":29.301143,"longitude":-94.7974801,"population2010":68612,"show":"","position":""},
{"name":"Victoria","state":"TX","latitude":28.80499758,"longitude":-97.00334029,"population2010":64209,"show":"","position":""},
{"name":"Temple","state":"TX","latitude":31.10209251,"longitude":-97.36300826,"population2010":61161,"show":"","position":""},
{"name":"Eagle Pass","state":"TX","latitude":28.71102399,"longitude":-100.4892774,"population2010":53276,"show":"","position":""},
{"name":"Port Arthur","state":"TX","latitude":29.89898765,"longitude":-93.92859257,"population2010":52999,"show":"","position":""},
{"name":"New Braunfels","state":"TX","latitude":29.6978113,"longitude":-98.12632084,"population2010":44700,"show":"","position":""},
{"name":"Lufkin","state":"TX","latitude":31.33843467,"longitude":-94.72887964,"population2010":43264,"show":"","position":""},
{"name":"Sherman","state":"TX","latitude":33.63599469,"longitude":-96.60858403,"population2010":40284,"show":"","position":""},
{"name":"Cleburne","state":"TX","latitude":32.35152529,"longitude":-97.39248967,"population2010":35545,"show":"","position":""},
{"name":"Del Rio","state":"TX","latitude":29.36294802,"longitude":-100.8963843,"population2010":35539,"show":"","position":""},
{"name":"Huntsville","state":"TX","latitude":30.72376935,"longitude":-95.55058659,"population2010":33299,"show":"","position":""},
{"name":"Kingsville","state":"TX","latitude":27.51595481,"longitude":-97.8558464,"population2010":23857,"show":"","position":""},
{"name":"Big Spring","state":"TX","latitude":32.24318565,"longitude":-101.4751862,"population2010":23852,"show":"","position":""},
{"name":"Alice","state":"TX","latitude":27.75046246,"longitude":-98.07048446,"population2010":22655,"show":"","position":""},
{"name":"Brownwood","state":"TX","latitude":31.70789532,"longitude":-98.98231511,"population2010":20988,"show":"","position":""},
{"name":"Bay City","state":"TX","latitude":28.98111086,"longitude":-95.96435978,"population2010":16311,"show":"","position":""},
{"name":"Hereford","state":"TX","latitude":34.82191713,"longitude":-102.3985924,"population2010":15675,"show":"","position":""},
{"name":"Dumas","state":"TX","latitude":35.86239626,"longitude":-101.9668875,"population2010":13474,"show":"","position":""},
{"name":"Vernon","state":"TX","latitude":34.15105369,"longitude":-99.29038416,"population2010":11489,"show":"","position":""},
{"name":"Beeville","state":"TX","latitude":28.40597801,"longitude":-97.75083989,"population2010":10492,"show":"","position":""},
{"name":"Port Lavaca","state":"TX","latitude":28.61601687,"longitude":-96.62969385,"population2010":9688,"show":"","position":""},
{"name":"Fort Stockton","state":"TX","latitude":30.89169191,"longitude":-102.8849968,"population2010":7721,"show":"","position":""},
{"name":"Pecos","state":"TX","latitude":31.41579429,"longitude":-103.4998947,"population2010":7610,"show":"","position":""},
{"name":"Alpine","state":"TX","latitude":30.36071657,"longitude":-103.6650009,"population2010":6587,"show":"","position":""},
{"name":"Dalhart","state":"TX","latitude":36.06080792,"longitude":-102.5186109,"population2010":6439,"show":"","position":""},
{"name":"Falfurrias","state":"TX","latitude":27.22690269,"longitude":-98.14489852,"population2010":5349,"show":"","position":""},
{"name":"Childress","state":"TX","latitude":34.4248871,"longitude":-100.2139195,"population2010":4767,"show":"","position":""},
{"name":"Van Horn","state":"TX","latitude":31.04248374,"longitude":-104.8322423,"population2010":1419,"show":"","position":""},
{"name":"Conroe","state":"TX","latitude":30.31206321,"longitude":-95.45586369,"population2010":0,"show":"","position":""},
{"name":"Nacogdoches","state":"TX","latitude":31.60374147,"longitude":-94.65526656,"population2010":0,"show":"","position":""},
{"name":"Alexandria","state":"VA","latitude":38.82043276,"longitude":-77.09998153,"population2010":1514494,"show":"x","position":"left-up"},
{"name":"Richmond","state":"VA","latitude":37.55001935,"longitude":-77.449986,"population2010":716242,"show":"x","position":"left-up"},
{"name":"Norfolk","state":"VA","latitude":36.84995872,"longitude":-76.28000574,"population2010":703977,"show":"x","position":"left-up"},
{"name":"Hampton","state":"VA","latitude":37.03002525,"longitude":-76.34994979,"population2010":366766,"show":"","position":""},
{"name":"Virginia Beach","state":"VA","latitude":36.85321433,"longitude":-75.97831873,"population2010":263951,"show":"","position":""},
{"name":"Roanoke","state":"VA","latitude":37.27119916,"longitude":-79.94161686,"population2010":198171,"show":"x","position":"left-up"},
{"name":"Fredericksburg","state":"VA","latitude":38.30351341,"longitude":-77.46078638,"population2010":133134,"show":"x","position":"left-up"},
{"name":"Petersburg","state":"VA","latitude":37.22776512,"longitude":-77.40223698,"population2010":118577,"show":"","position":""},
{"name":"Lynchburg","state":"VA","latitude":37.4136194,"longitude":-79.14246668,"population2010":103893,"show":"","position":""},
{"name":"Charlottesville","state":"VA","latitude":38.02918907,"longitude":-78.47692591,"population2010":87925,"show":"","position":""},
{"name":"Blacksburg","state":"VA","latitude":37.22941876,"longitude":-80.41419784,"population2010":67508,"show":"","position":""},
{"name":"Winchester","state":"VA","latitude":39.1787313,"longitude":-78.16663477,"population2010":53941,"show":"","position":""},
{"name":"Harrisonburg","state":"VA","latitude":38.44942181,"longitude":-78.86917586,"population2010":42538,"show":"","position":""},
{"name":"Danville","state":"VA","latitude":36.58625388,"longitude":-79.39531946,"population2010":40458,"show":"","position":""},
{"name":"Bristol","state":"VA","latitude":36.61152366,"longitude":-82.17600244,"population2010":37443,"show":"","position":""},
{"name":"Burlington","state":"VT","latitude":44.47579816,"longitude":-73.21246688,"population2010":93807,"show":"x","position":"right-up"},
{"name":"Montpelier","state":"VT","latitude":44.25997154,"longitude":-72.57581323,"population2010":8538,"show":"x","position":"right-up"}]